[
  {
    "conference":"AFC EAST",
    "location":"New England",
    "name":"Patriots",
    "team":"ne",
    "w":14,
    "l":2,
    "t":0,
    "pf":441,
    "pa":250,
    "str":"W7",
    "stadium":"Gillette",
    "capacity":68756,
    "address":"One Patriot Place",
    "city":"Foxborough",
    "state":"MA",
    "zip":"02035",
    "latitude":42.0925375,
    "longitude":-71.2641249
  },
  {
    "conference":"AFC EAST",
    "location":"New York",
    "name":"Jets",
    "team":"nyj",
    "w":5,
    "l":11,
    "t":0,
    "pf":275,
    "pa":409,
    "str":"W1",
    "stadium":"MetLife",
    "capacity":82500,
    "address":"102 Route 120",
    "city":"East Rutherford",
    "state":"NJ",
    "zip":"07073",
    "latitude":40.8136468,
    "longitude":-74.0743732
  },
  {
    "conference":"AFC EAST",
    "location":"Buffalo",
    "name":"Bills",
    "team":"buf",
    "w":7,
    "l":9,
    "t":0,
    "pf":399,
    "pa":378,
    "str":"L2",
    "stadium":"New Era",
    "capacity":73079,
    "address":"One Bills Drive",
    "city":"Orchard Park",
    "state":"NY",
    "zip":"14217",
    "latitude":42.7732657,
    "longitude":-78.7858566
  },
  {
    "conference":"AFC EAST",
    "location":"Miami",
    "name":"Dolphins",
    "team":"mia",
    "w":10,
    "l":6,
    "t":0,
    "pf":363,
    "pa":380,
    "str":"L1",
    "stadium":"Hard Rock",
    "capacity":65326,
    "address":"347 Don Shula Drive",
    "city":"Miami Gardens",
    "state":"FL",
    "zip":"33056",
    "latitude":25.9579665,
    "longitude":-80.2388604
  },
  {
    "conference":"AFC NORTH",
    "location":"Cincinnati",
    "name":"Bengals",
    "team":"cin",
    "w":6,
    "l":9,
    "t":1,
    "pf":325,
    "pa":315,
    "str":"W1",
    "stadium":"Paul Brown",
    "capacity":65515,
    "address":"One Paul Brown Stadium",
    "city":"Cincinnati",
    "state":"OH",
    "zip":"45202",
    "latitude":39.0963749,
    "longitude":-84.5164024
  },
  {
    "conference":"AFC NORTH",
    "location":"Pittsburgh",
    "name":"Steelers",
    "team":"pit",
    "w":11,
    "l":5,
    "t":0,
    "pf":399,
    "pa":327,
    "str":"W7",
    "stadium":"Heinz",
    "capacity":65500,
    "address":"100 Art Rooney Avenue",
    "city":"Pittsburgh",
    "state":"PA",
    "zip":"15212",
    "latitude":40.4467385,
    "longitude":-80.0158375
  },
  {
    "conference":"AFC NORTH",
    "location":"Cleveland",
    "name":"Browns",
    "team":"cle",
    "w":1,
    "l":15,
    "t":0,
    "pf":264,
    "pa":452,
    "str":"L1",
    "stadium":"FirstEnergy",
    "capacity":73200,
    "address":"100 Alfred Lerner Way",
    "city":"Cleveland",
    "state":"OH",
    "zip":"44114",
    "latitude":41.5064786,
    "longitude":-81.6999617
  },
  {
    "conference":"AFC NORTH",
    "location":"Baltimore",
    "name":"Ravens",
    "team":"bal",
    "w":8,
    "l":8,
    "t":0,
    "pf":343,
    "pa":321,
    "str":"L2",
    "stadium":"M&T Bank",
    "capacity":71008,
    "address":"1101 Russell Street",
    "city":"Baltimore",
    "state":"MD",
    "zip":"21230",
    "latitude":39.2773615,
    "longitude":-76.623021
  },
  {
    "conference":"AFC SOUTH",
    "location":"Indianapolis",
    "name":"Colts",
    "team":"ind",
    "w":8,
    "l":8,
    "t":0,
    "pf":411,
    "pa":392,
    "str":"W1",
    "stadium":"Lucas Oil",
    "capacity":67000,
    "address":"500 S. Capitol Avenue",
    "city":"Indianapolis",
    "state":"IN",
    "zip":"46225",
    "latitude":39.7600608,
    "longitude":-86.1638013
  },
  {
    "conference":"AFC SOUTH",
    "location":"Jacksonville",
    "name":"Jaguars",
    "team":"jax",
    "w":3,
    "l":13,
    "t":0,
    "pf":318,
    "pa":400,
    "str":"L1",
    "stadium":"EverBank",
    "capacity":67246,
    "address":"One EverBank Field Drive",
    "city":"Jacksonville",
    "state":"FL",
    "zip":"32202",
    "latitude":30.3239526,
    "longitude":-81.6373309
  },
  {
    "conference":"AFC SOUTH",
    "location":"Houston",
    "name":"Texans",
    "team":"hou",
    "w":9,
    "l":7,
    "t":0,
    "pf":279,
    "pa":328,
    "str":"L1",
    "stadium":"Reliant",
    "capacity":71500,
    "address":"Two Reliant Park",
    "city":"Houston",
    "state":"TX",
    "zip":"77054",
    "latitude":29.6847219,
    "longitude":-95.4107074
  },
  {
    "conference":"AFC SOUTH",
    "location":"Tennessee",
    "name":"Titans",
    "team":"ten",
    "w":9,
    "l":7,
    "t":0,
    "pf":381,
    "pa":378,
    "str":"W1",
    "stadium":"Nissan",
    "capacity":69143,
    "address":"One Titans Way",
    "city":"Nashville",
    "state":"TN",
    "zip":"37213",
    "latitude":36.1661644,
    "longitude":-86.7717047
  },
  {
    "conference":"AFC WEST",
    "location":"Denver",
    "name":"Broncos",
    "team":"den",
    "w":9,
    "l":7,
    "t":0,
    "pf":333,
    "pa":297,
    "str":"W1",
    "stadium":"Sports Authority",
    "capacity":76125,
    "address":"1701 Bryant Street",
    "city":"Denver",
    "state":"CO",
    "zip":"80204",
    "latitude":39.7439476,
    "longitude":-105.020278
  },
  {
    "conference":"AFC WEST",
    "location":"Oakland",
    "name":"Raiders",
    "team":"oak",
    "w":12,
    "l":4,
    "t":0,
    "pf":416,
    "pa":385,
    "str":"L1",
    "stadium":"O.co Coliseum",
    "capacity":63132,
    "address":"7000 Coliseum Way",
    "city":"Oakland",
    "state":"CA",
    "zip":"63132",
    "latitude":37.7502681,
    "longitude":-122.2026093
  },
  {
    "conference":"AFC WEST",
    "location":"San Diego",
    "name":"Chargers",
    "team":"sd",
    "w":5,
    "l":11,
    "t":0,
    "pf":410,
    "pa":423,
    "str":"L5",
    "stadium":"Qualcomm",
    "capacity":71500,
    "address":"9449 Friars Road",
    "city":"San Diego",
    "state":"CA",
    "zip":"92108",
    "latitude":32.7840251,
    "longitude":-117.1199167
  },
  {
    "conference":"AFC WEST",
    "location":"Kansas City",
    "name":"Chiefs",
    "team":"kc",
    "w":12,
    "l":4,
    "t":0,
    "pf":389,
    "pa":311,
    "str":"W2",
    "stadium":"Arrowhead",
    "capacity":79541,
    "address":"One Arrowhead Drive",
    "city":"Kansas City",
    "state":"MO",
    "zip":"64129",
    "latitude":39.0489306,
    "longitude":-94.483984
  },
  {
    "conference":"NFC EAST",
    "location":"Dallas",
    "name":"Cowboys",
    "team":"dal",
    "w":13,
    "l":3,
    "t":0,
    "pf":421,
    "pa":306,
    "str":"L1",
    "stadium":"AT&T",
    "capacity":80000,
    "address":"One AT&T Way",
    "city":"Arlington",
    "state":"TX",
    "zip":"76011",
    "latitude":32.754232,
    "longitude":-97.0903379
  },
  {
    "conference":"NFC EAST",
    "location":"New York",
    "name":"Giants",
    "team":"nyg",
    "w":11,
    "l":5,
    "t":0,
    "pf":310,
    "pa":284,
    "str":"W1",
    "stadium":"MetLife",
    "capacity":82500,
    "address":"102 Route 120",
    "city":"East Rutherford",
    "state":"NJ",
    "zip":"07073",
    "latitude":40.8136468,
    "longitude":-74.0743732
  },
  {
    "conference":"NFC EAST",
    "location":"Washington",
    "name":"Redskins",
    "team":"wsh",
    "w":8,
    "l":7,
    "t":1,
    "pf":396,
    "pa":383,
    "str":"L1",
    "stadium":"FedEx",
    "capacity":85000,
    "address":"1600 FedEx Way",
    "city":"Landover",
    "state":"MD",
    "zip":"20785",
    "latitude":38.9069897,
    "longitude":-76.8654508
  },
  {
    "conference":"NFC EAST",
    "location":"Philadelphia",
    "name":"Eagles",
    "team":"phi",
    "w":7,
    "l":9,
    "t":0,
    "pf":367,
    "pa":331,
    "str":"W2",
    "stadium":"Lincoln Financial",
    "capacity":67594,
    "address":"One Lincoln Financial Field Way",
    "city":"Philadelphia",
    "state":"PA",
    "zip":"19148",
    "latitude":39.9036294,
    "longitude":-75.1691663
  },
  {
    "conference":"NFC NORTH",
    "location":"Green Bay",
    "name":"Packers",
    "team":"gb",
    "w":10,
    "l":6,
    "t":0,
    "pf":432,
    "pa":388,
    "str":"W6",
    "stadium":"Lambeau",
    "capacity":80750,
    "address":"1265 Lombardi Avenue",
    "city":"Green Bay",
    "state":"WI",
    "zip":"54304",
    "latitude":44.500925,
    "longitude":-88.0613009
  },
  {
    "conference":"NFC NORTH",
    "location":"Minnesota",
    "name":"Vikings",
    "team":"min",
    "w":8,
    "l":8,
    "t":0,
    "pf":327,
    "pa":307,
    "str":"W1",
    "stadium":"TCF Bank",
    "capacity":50805,
    "address":"420 23rd Ave. S.E.",
    "city":"Minneapolis",
    "state":"MN",
    "zip":"55455",
    "latitude":44.9774744,
    "longitude":-93.2246965
  },
  {
    "conference":"NFC NORTH",
    "location":"Detroit",
    "name":"Lions",
    "team":"det",
    "w":9,
    "l":7,
    "t":0,
    "pf":346,
    "pa":358,
    "str":"L3",
    "stadium":"Ford",
    "capacity":65000,
    "address":"2000 Brush Street",
    "city":"Detroit",
    "state":"MI",
    "zip":"48226",
    "latitude":42.339799,
    "longitude":-83.0455481
  },
  {
    "conference":"NFC NORTH",
    "location":"Chicago",
    "name":"Bears",
    "team":"chi",
    "w":3,
    "l":13,
    "t":0,
    "pf":279,
    "pa":399,
    "str":"L4",
    "stadium":"Soldier",
    "capacity":61500,
    "address":"1410 S. Museumï¿½Campus Drive",
    "city":"Chicago",
    "state":"IL",
    "zip":"60605",
    "latitude":41.8622646,
    "longitude":-87.6166382
  },
  {
    "conference":"NFC SOUTH",
    "location":"Carolina",
    "name":"Panthers",
    "team":"car",
    "w":6,
    "l":10,
    "t":0,
    "pf":369,
    "pa":402,
    "str":"L2",
    "stadium":"Bank of America",
    "capacity":73778,
    "address":"800 S. Mint Street",
    "city":"Charlotte",
    "state":"NC",
    "zip":"28202",
    "latitude":35.2256295,
    "longitude":-80.8527401
  },
  {
    "conference":"NFC SOUTH",
    "location":"Atlanta",
    "name":"Falcons",
    "team":"atl",
    "w":11,
    "l":5,
    "t":0,
    "pf":540,
    "pa":406,
    "str":"W4",
    "stadium":"Georgia Dome",
    "capacity":71250,
    "address":"One Georgia Dome Drive N.W.",
    "city":"Atlanta",
    "state":"GA",
    "zip":"30313",
    "latitude":33.7576897,
    "longitude":-84.4008285
  },
  {
    "conference":"NFC SOUTH",
    "location":"Tampa Bay",
    "name":"Buccaneers",
    "team":"tb",
    "w":9,
    "l":7,
    "t":0,
    "pf":354,
    "pa":369,
    "str":"W1",
    "stadium":"Raymond James",
    "capacity":65890,
    "address":"4201 N. Dale Mabry Highway",
    "city":"Tampa",
    "state":"FL",
    "zip":"33607",
    "latitude":27.9759692,
    "longitude":-82.5033458
  },
  {
    "conference":"NFC SOUTH",
    "location":"New Orleans",
    "name":"Saints",
    "team":"no",
    "w":7,
    "l":9,
    "t":0,
    "pf":469,
    "pa":454,
    "str":"L1",
    "stadium":"Mercedes-Benz Superdome",
    "capacity":73208,
    "address":"Sugar Bowl Drive",
    "city":"New Orleans",
    "state":"LA",
    "zip":"70112",
    "latitude":29.9522476,
    "longitude":-90.0804845
  },
  {
    "conference":"NFC WEST",
    "location":"Arizona",
    "name":"Cardinals",
    "team":"ari",
    "w":7,
    "l":8,
    "t":1,
    "pf":418,
    "pa":362,
    "str":"W2",
    "stadium":"University of Phoenix",
    "capacity":63400,
    "address":"One Cardinals Drive",
    "city":"Glendale",
    "state":"AZ",
    "zip":"85305",
    "latitude":33.5277213,
    "longitude":-112.2625286
  },
  {
    "conference":"NFC WEST",
    "location":"Los Angeles",
    "name":"Rams",
    "team":"la",
    "w":4,
    "l":12,
    "t":0,
    "pf":224,
    "pa":394,
    "str":"L7",
    "stadium":"Memorial Coliseum",
    "capacity":93607,
    "address":"3939 S. Figueroa St.",
    "city":"Los Angeles",
    "state":"CA",
    "zip":"90037",
    "latitude":34.012589,
    "longitude":-118.284748
  },
  {
    "conference":"NFC WEST",
    "location":"San Francisco",
    "name":"49ers",
    "team":"sf",
    "w":2,
    "l":14,
    "t":0,
    "pf":309,
    "pa":480,
    "str":"L1",
    "stadium":"Levi's",
    "capacity":68500,
    "address":"4900 Marie P. DeBartolo Way",
    "city":"Santa Clara",
    "state":"CA",
    "zip":"95054",
    "latitude":37.4031966,
    "longitude":-121.9698524
  },
  {
    "conference":"NFC WEST",
    "location":"Seattle",
    "name":"Seahawks",
    "team":"sea",
    "w":10,
    "l":5,
    "t":1,
    "pf":354,
    "pa":292,
    "str":"W1",
    "stadium":"CenturyLink",
    "capacity":67000,
    "address":"800 Occidental Ave. S.",
    "city":"Seattle",
    "state":"WA",
    "zip":"98134",
    "latitude":47.593307,
    "longitude":-122.3321654
  }
]